[
    {
        "name": "Austria",
        "latitude": 47.5162,
        "longitude": 13.3777,
        "pinSize": 2,
        "image": {
            "src": "assets/images/places-banner-imgs/austria.png",
            "alt": "Austria flag"
        },
        "favoriteFood": [
            "Apfelstrudel"
        ],
        "mustSee": [
            "Kunsthistorisches Museum",
            "Schönbrunn Palace",
            "Austrian National Library"
        ],
        "coolUnusual": [
            "Peterskirche organ concert",
            "Vollpension cafe"
        ],
        "funFact": [
            "The taste and texture of dairy products vary greatly across regions.. particularly alpine!"
        ],
        "cities": [
            {
                "name": "Salzburg",
                "latitude": 47.8095,
                "longitude": 13.0550,
                "pinSize": 1
            },
            {
                "name": "Vienna",
                "latitude": 48.2082,
                "longitude": 16.3738,
                "pinSize": 1
            }
        ]
    },
    {
        "name": "France",
        "latitude": 46.6034,
        "longitude": 1.8883,
        "pinSize": 2,
        "image": {
            "src": "assets/images/places-banner-imgs/france.png",
            "alt": "France flag"
        },
        "favoriteFood": [
            "Canelés"
        ],
        "mustSee": [
            "Palais Garnier (take a tour)",
            "Sacré-Coeur Basilica",
            "Saint-Eustache"
        ],
        "coolUnusual": [
            "Les Catacombes de Paris",
            "Père-Lachaise Cemetery"
        ],
        "funFact": [
            "Disneyland is just a 45 min train ride from the city center, and it's the only Disney park in Europe!"
        ],
        "cities": [
            {
                "name": "Marne-la-Vallée",
                "latitude": 48.8704,
                "longitude": 2.7828,
                "pinSize": 1
            },
            {
                "name": "Paris",
                "latitude": 48.8566,
                "longitude": 2.3522,
                "pinSize": 1
            }
        ]
    },
    {
        "name": "Germany",
        "latitude": 51.1657,
        "longitude": 10.4515,
        "pinSize": 2,
        "image": {
            "src": "assets/images/places-banner-imgs/germany.png",
            "alt": "Germany flag"
        },
        "favoriteFood": [
            "Nürnberger Rostbratwurst"
        ],
        "mustSee": [
            "Neuschwanstein (learn the story)",
            "Rathaus-Glockenspiel",
            "Peterskirche"
        ],
        "coolUnusual": [
            "Deutsche Bahn Museum",
            "Nuremberg Toy Museum"
        ],
        "funFact": [
            "Many cities enforce a dog tax. By contrast, some municipalities offer tax breaks to families with kids."
        ],
        "cities": [
            {
                "name": "Munich",
                "latitude": 48.1351,
                "longitude": 11.5820,
                "pinSize": 1
            },
            {
                "name": "Nuremberg",
                "latitude": 49.4521,
                "longitude": 11.0767,
                "pinSize": 1
            }
        ]
    },
    {
        "name": "Mexico",
        "latitude": 23.6345,
        "longitude": -102.5528,
        "pinSize": 2,
        "image": {
            "src": "assets/images/places-banner-imgs/mexico.png",
            "alt": "Mexico flag"
        },
        "favoriteFood": [
            "Ceviche de pescado"
        ],
        "mustSee": [
            "Whale sharks in the Gulf of Mexico",
            "The Great Mayan Reef"
        ],
        "coolUnusual": [
            "Turtle nests along the Riviera Maya"
        ],
        "funFact": [
            "The Mesoamerican Barrier Reef is the 2nd largest in the world, spanning 4 countries!"
        ],
        "cities": [
            {
                "name": "Cancún",
                "latitude": 21.1743,
                "longitude": -86.8466,
                "pinSize": 1
            },
            {
                "name": "Puerto Morelos",
                "latitude": 20.8482,
                "longitude": -86.8761,
                "pinSize": 1
            }
        ]
    },
    {
        "name": "Puerto Rico",
        "latitude": 18.2208,
        "longitude": -66.5901,
        "pinSize": 2,
        "image": {
            "src": "assets/images/places-banner-imgs/puerto-rico.png",
            "alt": "Puerto Rico flag"
        },
        "favoriteFood": [
            "Mofongo"
        ],
        "mustSee": [
            "Cueva del Indio",
            "Castillo San Felipe del Morro",
            "Mangrove forests"
        ],
        "coolUnusual": [
            "Cuevas Arenales",
            "The Poet's Passage"
        ],
        "funFact": [
            "There are 17 known species of coquí, and they hatch as tiny frogs.. no tadpoles!"
        ],
        "cities": [
            {
                "name": "Arecibo",
                "latitude": 18.4720,
                "longitude": -66.7160,
                "pinSize": 1
            },
            {
                "name": "Caguas",
                "latitude": 18.2341,
                "longitude": -66.0485,
                "pinSize": 1
            },
            {
                "name": "Fajardo",
                "latitude": 18.3258,
                "longitude": -65.6524,
                "pinSize": 1
            },
            {
                "name": "San Juan",
                "latitude": 18.4655,
                "longitude": -66.1057,
                "pinSize": 1
            }
        ]
    },
    {
        "name": "Spain",
        "latitude": 40.4637,
        "longitude": -3.7492,
        "pinSize": 2,
        "image": {
            "src": "assets/images/places-banner-imgs/spain.png",
            "alt": "Spain flag"
        },
        "favoriteFood": [
            "Patatas bravas"
        ],
        "mustSee": [
            "El Retiro (find the peacocks)",
            "Casa de Campo",
            "Royal Alcázar of Sevilla"
        ],
        "coolUnusual": [
            "Sorolla Museum",
            "Catedral Primada de Toledo"
        ],
        "funFact": [
            "The Spanish tortilla de patatas debate is real, and it all comes down to onions."
        ],
        "cities": [
            {
                "name": "Ávila",
                "latitude": 40.6572,
                "longitude": -4.6995,
                "pinSize": 1
            },
            {
                "name": "Barcelona",
                "latitude": 41.3784,
                "longitude": 2.1924,
                "pinSize": 1
            },
            {
                "name": "Madrid",
                "latitude": 40.4168,
                "longitude": -3.7038,
                "pinSize": 1
            },
            {
                "name": "Segovia",
                "latitude": 40.9481,
                "longitude": 4.1182,
                "pinSize": 1
            },
            {
                "name": "Sevilla",
                "latitude": 37.3886,
                "longitude": 5.9823,
                "pinSize": 1
            },
            {
                "name": "Toledo",
                "latitude": 39.8628,
                "longitude": 4.0273,
                "pinSize": 1
            }
        ]
    },
    {
        "name": "United Kingdom",
        "latitude": 52.9550,
        "longitude": -1.5321,
        "pinSize": 2,
        "image": {
            "src": "assets/images/places-banner-imgs/united-kingdom.png",
            "alt": "United Kingdom flag"
        },
        "favoriteFood": [
            "Bath buns"
        ],
        "mustSee": [
            "Jurassic Coast",
            "The Wallace Collection",
            "Maritime Greenwich"
        ],
        "coolUnusual": [
            "House of MinaLima",
            "Mail Rail at The Postal Museum",
            "Ceremony of the Keys"
        ],
        "funFact": [
            "Roman ruins are everywhere in London, which was originally founded as Londinium."
        ],
        "cities": [
            {
                "name": "Brighton",
                "latitude": 50.8278,
                "longitude": -0.1528,
                "pinSize": 1
            },
            {
                "name": "Canterbury",
                "latitude": 51.2799,
                "longitude": 1.0800,
                "pinSize": 1
            },
            {
                "name": "Edinburgh",
                "latitude": 55.9533,
                "longitude": -3.1883,
                "pinSize": 1
            },
            {
                "name": "Glasgow",
                "latitude": 55.8642,
                "longitude": -4.2518,
                "pinSize": 1
            },
            {
                "name": "Liverpool",
                "latitude": 53.4084,
                "longitude": -2.9916,
                "pinSize": 1
            },
            {
                "name": "London",
                "latitude": 51.5074,
                "longitude": -0.1278,
                "pinSize": 1
            },
            {
                "name": "Salisbury",
                "latitude": 51.0687,
                "longitude": -1.7944,
                "pinSize": 1
            },
            {
                "name": "York",
                "latitude": 53.9583,
                "longitude": -1.0803,
                "pinSize": 1
            }
        ]
    },
    {
        "name": "United States",
        "latitude": 37.0902,
        "longitude": -95.7129,
        "pinSize": 2,
        "image": {
            "src": "assets/images/places-banner-imgs/united-states.png",
            "alt": "United States flag"
        },
        "favoriteFood": [
            "Key lime pie"
        ],
        "mustSee": [
            "National parks",
            "Pacific Coast Highway",
            "Smithsonian museums"
        ],
        "coolUnusual": [
            "The Tenement Museum",
            "Downtown Salem (not on Halloween)",
            "Reclaim Arcade"
        ],
        "funFact": [
            "The U.S. has the most diverse climate zones of any country.. from tropical to tundra!"
        ],
        "cities": [
            {
                "name": "Boston",
                "latitude": 42.3601,
                "longitude": -71.0589,
                "pinSize": 1
            },
            {
                "name": "Denver",
                "latitude": 39.7392,
                "longitude": -104.9903,
                "pinSize": 1
            },
            {
                "name": "Los Angeles",
                "latitude": 34.0522,
                "longitude": -118.2437,
                "pinSize": 1
            },
            {
                "name": "New York",
                "latitude": 40.7128,
                "longitude": -74.0060,
                "pinSize": 1
            },
            {
                "name": "Provincetown",
                "latitude": 42.058,
                "longitude": -70.1790,
                "pinSize": 1
            },
            {
                "name": "Richmond",
                "latitude": 37.5407,
                "longitude": -77.4360,
                "pinSize": 1
            },
            {
                "name": "San Francisco",
                "latitude": 37.7749,
                "longitude": -122.4194,
                "pinSize": 1
            },
            {
                "name": "Washington, D.C.",
                "latitude": 38.9072,
                "longitude": -77.0369,
                "pinSize": 1
            }
        ]
    }
]

